[
  {
    "name": "Lorem Ipsum Canis",
    "category": "Dog breeder",
    "adress": "Dolor Sit 123, 123 45 Amet",
    "street": 123,
    "city": "Amet",
    "postal_code": "123 45",
    "latitude": "59,1234567",
    "longitude": "18,7654321",
    "rating": "4,5",
    "reviews": 15,
    "photo": "https://via.placeholder.com/800x500?text=Lorem+Ipsum+Canis",
    "location_link": "https://www.google.com/maps/place/Lorem+Ipsum+Canis"
  },
  {
    "name": "Consectetur Adipiscing",
    "category": "Dog breeder",
    "adress": "Elit Street 456, 234 56 Dolor",
    "street": 456,
    "city": "Dolor",
    "postal_code": "234 56",
    "latitude": "58,9876543",
    "longitude": "17,1234567",
    "rating": "4,2",
    "reviews": 32,
    "photo": "https://via.placeholder.com/800x500?text=Consectetur+Adipiscing",
    "location_link": "https://www.google.com/maps/place/Consectetur+Adipiscing"
  },
  {
    "name": "Sed Do Eiusmod",
    "category": "Dog breeder",
    "adress": "Tempor Avenue 789, 345 67 Sit",
    "street": "Tempor Avenue 789",
    "city": "Sit",
    "postal_code": "345 67",
    "latitude": "57,5555555",
    "longitude": "16,8888888",
    "rating": "4,8",
    "reviews": 7,
    "photo": "https://via.placeholder.com/800x500?text=Sed+Do+Eiusmod",
    "location_link": "https://www.google.com/maps/place/Sed+Do+Eiusmod"
  },
  {
    "name": "Incididunt Ut Labore",
    "category": "Dog breeder",
    "adress": "Dolore Magna 321, 456 78 Aliqua",
    "street": "321",
    "city": "Aliqua",
    "postal_code": "456 78",
    "latitude": "56,1111111",
    "longitude": "15,2222222",
    "rating": 5,
    "reviews": 12,
    "photo": "https://via.placeholder.com/800x500?text=Incididunt+Ut+Labore",
    "location_link": "https://www.google.com/maps/place/Incididunt+Ut+Labore"
  },
  {
    "name": "Enim Ad Minim",
    "category": "Dog breeder",
    "adress": "Veniam Road 654, 567 89 Quis",
    "street": 654,
    "city": "Quis",
    "postal_code": "567 89",
    "latitude": "55,3333333",
    "longitude": "14,4444444",
    "rating": "",
    "reviews": "",
    "photo": "https://via.placeholder.com/800x500?text=Enim+Ad+Minim",
    "location_link": "https://www.google.com/maps/place/Enim+Ad+Minim"
  },
  {
    "name": "Lorem Ipsum Canis",
    "category": "Dog breeder",
    "adress": "Dolor Sit 123, 123 45 Amet",
    "street": 123,
    "city": "Amet",
    "postal_code": "123 45",
    "latitude": "59,1234567",
    "longitude": "18,7654321",
    "rating": "4,5",
    "reviews": 15,
    "photo": "https://via.placeholder.com/800x500?text=Lorem+Ipsum+Canis",
    "location_link": "https://www.google.com/maps/place/Lorem+Ipsum+Canis"
  },
  {
    "name": "Consectetur Adipiscing",
    "category": "Dog breeder",
    "adress": "Elit Street 456, 234 56 Dolor",
    "street": 456,
    "city": "Dolor",
    "postal_code": "234 56",
    "latitude": "58,9876543",
    "longitude": "17,1234567",
    "rating": "4,2",
    "reviews": 32,
    "photo": "https://via.placeholder.com/800x500?text=Consectetur+Adipiscing",
    "location_link": "https://www.google.com/maps/place/Consectetur+Adipiscing"
  },
  {
    "name": "Sed Do Eiusmod",
    "category": "Dog breeder",
    "adress": "Tempor Avenue 789, 345 67 Sit",
    "street": "Tempor Avenue 789",
    "city": "Sit",
    "postal_code": "345 67",
    "latitude": "57,5555555",
    "longitude": "16,8888888",
    "rating": "4,8",
    "reviews": 7,
    "photo": "https://via.placeholder.com/800x500?text=Sed+Do+Eiusmod",
    "location_link": "https://www.google.com/maps/place/Sed+Do+Eiusmod"
  },
  {
    "name": "Incididunt Ut Labore",
    "category": "Dog breeder",
    "adress": "Dolore Magna 321, 456 78 Aliqua",
    "street": "321",
    "city": "Aliqua",
    "postal_code": "456 78",
    "latitude": "56,1111111",
    "longitude": "15,2222222",
    "rating": 5,
    "reviews": 12,
    "photo": "https://via.placeholder.com/800x500?text=Incididunt+Ut+Labore",
    "location_link": "https://www.google.com/maps/place/Incididunt+Ut+Labore"
  },
  {
    "name": "Enim Ad Minim",
    "category": "Dog breeder",
    "adress": "Veniam Road 654, 567 89 Quis",
    "street": 654,
    "city": "Quis",
    "postal_code": "567 89",
    "latitude": "55,3333333",
    "longitude": "14,4444444",
    "rating": "",
    "reviews": "",
    "photo": "https://via.placeholder.com/800x500?text=Enim+Ad+Minim",
    "location_link": "https://www.google.com/maps/place/Enim+Ad+Minim"
  },
  {
    "name": "Lorem Ipsum Canis",
    "category": "Dog breeder",
    "adress": "Dolor Sit 123, 123 45 Amet",
    "street": 123,
    "city": "Amet",
    "postal_code": "123 45",
    "latitude": "59,1234567",
    "longitude": "18,7654321",
    "rating": "4,5",
    "reviews": 15,
    "photo": "https://via.placeholder.com/800x500?text=Lorem+Ipsum+Canis",
    "location_link": "https://www.google.com/maps/place/Lorem+Ipsum+Canis"
  },
  {
    "name": "Consectetur Adipiscing",
    "category": "Dog breeder",
    "adress": "Elit Street 456, 234 56 Dolor",
    "street": 456,
    "city": "Dolor",
    "postal_code": "234 56",
    "latitude": "58,9876543",
    "longitude": "17,1234567",
    "rating": "4,2",
    "reviews": 32,
    "photo": "https://via.placeholder.com/800x500?text=Consectetur+Adipiscing",
    "location_link": "https://www.google.com/maps/place/Consectetur+Adipiscing"
  },
  {
    "name": "Sed Do Eiusmod",
    "category": "Dog breeder",
    "adress": "Tempor Avenue 789, 345 67 Sit",
    "street": "Tempor Avenue 789",
    "city": "Sit",
    "postal_code": "345 67",
    "latitude": "57,5555555",
    "longitude": "16,8888888",
    "rating": "4,8",
    "reviews": 7,
    "photo": "https://via.placeholder.com/800x500?text=Sed+Do+Eiusmod",
    "location_link": "https://www.google.com/maps/place/Sed+Do+Eiusmod"
  },
  {
    "name": "Incididunt Ut Labore",
    "category": "Dog breeder",
    "adress": "Dolore Magna 321, 456 78 Aliqua",
    "street": "321",
    "city": "Aliqua",
    "postal_code": "456 78",
    "latitude": "56,1111111",
    "longitude": "15,2222222",
    "rating": 5,
    "reviews": 12,
    "photo": "https://via.placeholder.com/800x500?text=Incididunt+Ut+Labore",
    "location_link": "https://www.google.com/maps/place/Incididunt+Ut+Labore"
  },
  {
    "name": "Enim Ad Minim",
    "category": "Dog breeder",
    "adress": "Veniam Road 654, 567 89 Quis",
    "street": 654,
    "city": "Quis",
    "postal_code": "567 89",
    "latitude": "55,3333333",
    "longitude": "14,4444444",
    "rating": "",
    "reviews": "",
    "photo": "https://via.placeholder.com/800x500?text=Enim+Ad+Minim",
    "location_link": "https://www.google.com/maps/place/Enim+Ad+Minim"
  },
  {
    "name": "Lorem Ipsum Canis",
    "category": "Dog breeder",
    "adress": "Dolor Sit 123, 123 45 Amet",
    "street": 123,
    "city": "Amet",
    "postal_code": "123 45",
    "latitude": "59,1234567",
    "longitude": "18,7654321",
    "rating": "4,5",
    "reviews": 15,
    "photo": "https://via.placeholder.com/800x500?text=Lorem+Ipsum+Canis",
    "location_link": "https://www.google.com/maps/place/Lorem+Ipsum+Canis"
  },
  {
    "name": "Consectetur Adipiscing",
    "category": "Dog breeder",
    "adress": "Elit Street 456, 234 56 Dolor",
    "street": 456,
    "city": "Dolor",
    "postal_code": "234 56",
    "latitude": "58,9876543",
    "longitude": "17,1234567",
    "rating": "4,2",
    "reviews": 32,
    "photo": "https://via.placeholder.com/800x500?text=Consectetur+Adipiscing",
    "location_link": "https://www.google.com/maps/place/Consectetur+Adipiscing"
  },
  {
    "name": "Sed Do Eiusmod",
    "category": "Dog breeder",
    "adress": "Tempor Avenue 789, 345 67 Sit",
    "street": "Tempor Avenue 789",
    "city": "Sit",
    "postal_code": "345 67",
    "latitude": "57,5555555",
    "longitude": "16,8888888",
    "rating": "4,8",
    "reviews": 7,
    "photo": "https://via.placeholder.com/800x500?text=Sed+Do+Eiusmod",
    "location_link": "https://www.google.com/maps/place/Sed+Do+Eiusmod"
  },
  {
    "name": "Incididunt Ut Labore",
    "category": "Dog breeder",
    "adress": "Dolore Magna 321, 456 78 Aliqua",
    "street": "321",
    "city": "Aliqua",
    "postal_code": "456 78",
    "latitude": "56,1111111",
    "longitude": "15,2222222",
    "rating": 5,
    "reviews": 12,
    "photo": "https://via.placeholder.com/800x500?text=Incididunt+Ut+Labore",
    "location_link": "https://www.google.com/maps/place/Incididunt+Ut+Labore"
  },
  {
    "name": "Enim Ad Minim",
    "category": "Dog breeder",
    "adress": "Veniam Road 654, 567 89 Quis",
    "street": 654,
    "city": "Quis",
    "postal_code": "567 89",
    "latitude": "55,3333333",
    "longitude": "14,4444444",
    "rating": "",
    "reviews": "",
    "photo": "https://via.placeholder.com/800x500?text=Enim+Ad+Minim",
    "location_link": "https://www.google.com/maps/place/Enim+Ad+Minim"
  }
]
